[
    {
        "name": "El Artesano",
        "address": "Mercado Modelo 2nd lv, Santiago, Dom. Rep.",
        "phone": "809-971-5058",
        "website": "https://www.instagram.com/joyasenambar/?hl=es",
        "image": "el-artesano.webp",
        "membership_level": "Gold",
        "event": {
            "cover": "",
            "name": "",
            "date": "",
            "location": "",
            "status": ""
        }
    },
    {
        "name": "Ambar Dominicano",
        "address": "Ruta Panoramica, Santiago, Dom. Rep.",
        "phone": "809-972-3050",
        "website": "https://www.instagram.com/ambardominican2/",
        "image": "ambar-dominicano.webp",
        "membership_level": "Silver",
        "event": {
            "cover": "amber-event2.webp",
            "name": "Amber Research",
            "date": "5/10/2025",
            "location": "La Puntilla, Puerto Plata",
            "status": true
        }
    },
    {
        "name": "Blue Ambar House",
        "address": "#30 Prof. Juan Bosch St, Puerto Plata, Dom. Rep.",
        "phone": "809-690-2070",
        "website": "https://www.instagram.com/blueamberhouse.official/",
        "image": "ambar-house.webp",
        "membership_level": "Silver",
        "event": {
            "cover": "",
            "name": "",
            "date": "",
            "location": "",
            "status": ""
        }
    },
    {
        "name": "Ambar Factory",
        "address": "La Cumbre, Santiago, Dom. Rep.",
        "phone": "809-993-2997",
        "website": "https://www.instagram.com/ambar_factory/",
        "image": "ambar-factory.webp",
        "membership_level": "Gold",
        "event": {
            "cover": "",
            "name": "",
            "date": "",
            "location": "",
            "status": ""
        }
    },
    {
        "name": "Ambar Museum",
        "address": "#59 Duarte St, Puerto Plata, Dom. Rep.",
        "phone": "809-734-2599",
        "website": "https://www.ambermuseum.com",
        "image": "ambar.webp",
        "membership_level": "Silver",
        "event": {
            "cover": "event-ambar.webp",
            "name": "Northern Exposition",
            "date": "5/25/2025",
            "location": "Galerias Torres, Puerto Plata",
            "status": true
        }
    },
    {
        "name": "La Bodega",
        "address": "Av José Eugenio Kounhardt, Puerto Plata, Dom. Rep.",
        "phone": "809-970-7750",
        "website": "--",
        "image": "la-bodega.webp",
        "membership_level": "Gold",
        "event": {
            "cover": "",
            "name": "",
            "date": "",
            "location": "",
            "status": ""
        }
    },
    {
        "name": "Bleu Ambr Jewelry",
        "address": "Le Parc by Cormont, L-11, Punta Cana, Dom. Rep.",
        "phone": "829-883-3024",
        "website": "https://www.bleuambr.com/",
        "image": "blue-ambr.webp",
        "membership_level": "Gold",
        "event": {
            "cover": "",
            "name": "",
            "date": "",
            "location": "",
            "status": ""
        }
    },
    {
        "name": "Joyas Criollas",
        "address": "#24 Dr. César Dargám St, Santo Domingo, Dom. Rep.",
        "phone": "809-567-8518",
        "website": "https://www.joyascriollasrd.com/",
        "image": "joyas-criollas.webp",
        "membership_level": "Silver",
        "event": {
            "cover": "",
            "name": "",
            "date": "",
            "location": "",
            "status": ""
        }
    },
    {
        "name": "Mundo del Ambar",
        "address": "#452 Arz. Merino St, Santo Domingo, Dom. Rep.",
        "phone": "829-451-4735",
        "website": "https://www.instagram.com/thestoreatawm/?hl=en&utm_source=chatgpt.com",
        "image": "ambar-world.webp",
        "membership_level": "Silver",
        "event": {
            "cover": "",
            "name": "",
            "date": "",
            "location": "",
            "status": ""
        }
    },
    {
        "name": "Skillus",
        "address": "#421 Av. 27 de Feb, Plaza Dominica, Local 2B1, Santo Domingo, Dom. Rep.",
        "phone": "849-258-4562",
        "website": "https://skillusrd.com/",
        "image": "skillus.webp",
        "membership_level": "Gold",
        "event": {
            "cover": "",
            "name": "",
            "date": "",
            "location": "",
            "status": ""
        }
    }
]